City_ID,City,Lat,Lng,Max Temp,Humidity,Cloudiness,Wind Speed,Country,Date
0,gampaha,7.0897,79.9925,23.96,94,20,1.54,LK,1676170605
1,atuona,-9.8,-139.0333,26.06,74,8,6.34,PF,1676170605
2,carnarvon,-24.8667,113.6333,29.02,52,1,6.53,AU,1676170606
3,simao,22.7886,100.9748,20.71,25,4,1.74,CN,1676170606
4,griffith,41.5284,-87.4237,3.36,74,0,2.06,US,1676170333
5,damghan,36.1683,54.348,-0.63,53,98,2.01,IR,1676170607
6,albany,42.6001,-73.9662,-2.49,75,25,1.72,US,1676170414
7,ancud,-41.8697,-73.8203,13.63,98,100,1.52,CL,1676170607
8,garmsar,35.2182,52.3409,3.49,52,100,3.36,IR,1676170608
9,kapaa,22.0752,-159.319,25.99,82,100,8.23,US,1676170608
10,vanderhoof,54.0166,-124.0198,-1.78,96,100,1.27,CA,1676170609
11,konde,-4.95,39.75,26.1,72,35,4.77,TZ,1676170609
12,jamestown,42.097,-79.2353,1.51,73,0,4.12,US,1676170447
13,longyearbyen,78.2186,15.6401,-10.09,73,0,6.17,SJ,1676170610
14,souillac,-20.5167,57.5167,23.21,83,20,0.0,MU,1676170610
15,puerto rondon,6.2805,-71.1,25.74,63,76,2.9,CO,1676170610
16,astana,51.1801,71.446,-24.03,77,75,3.0,KZ,1676170611
17,bonthe,7.5264,-12.505,23.64,86,2,2.52,SL,1676170611
18,watsa,3.0372,29.5355,18.84,53,7,0.62,CD,1676170612
19,bahia blanca,-38.7196,-62.2724,30.72,46,42,0.89,AR,1676170612
20,nanortalik,60.1432,-45.2371,-14.03,66,95,6.17,GL,1676170613
21,avarua,-21.2078,-159.775,28.03,78,100,1.54,CK,1676170477
22,vaini,-21.2,-175.2,27.09,94,75,2.06,TO,1676170613
23,flin flon,54.7682,-101.865,-11.53,96,100,3.32,CA,1676170614
24,san cristobal,7.7669,-72.225,23.1,93,58,0.74,VE,1676170614
25,port alfred,-33.5906,26.891,21.77,96,100,3.72,ZA,1676170615
26,poum,-20.2333,164.0167,26.25,68,32,7.85,NC,1676170616
27,narsaq,60.9167,-46.05,-24.84,71,27,4.27,GL,1676170616
28,elizabeth city,36.2946,-76.2511,7.79,66,20,5.14,US,1676170616
29,samarai,-10.6167,150.6667,28.73,71,91,0.89,PG,1676170617
30,nova olinda do norte,-3.8881,-59.0942,22.38,99,100,0.75,BR,1676170617
31,nong han,17.3608,103.1053,33.41,37,0,1.68,TH,1676170618
32,puerto ayora,-0.7393,-90.3518,25.86,95,40,0.89,EC,1676170618
33,sri aman,1.2376,111.4621,28.03,89,40,0.0,MY,1676170619
34,busselton,-33.65,115.3333,24.9,36,0,2.29,AU,1676170619
35,tuktoyaktuk,69.4541,-133.0374,-30.0,69,20,3.09,CA,1676170620
36,sitka,57.0531,-135.33,4.94,81,100,7.72,US,1676170620
37,noumea,-22.2763,166.4572,28.99,62,2,8.99,NC,1676170050
38,praia,14.9215,-23.5087,21.3,73,75,6.17,CV,1676170397
39,severo-kurilsk,50.6789,156.125,-6.07,58,100,4.52,RU,1676170621
40,kieta,-6.2167,155.6333,29.96,67,100,3.78,PG,1676170621
41,acapulco,16.8634,-99.8901,27.9,74,0,2.57,MX,1676170092
42,rikitea,-23.1203,-134.9692,26.06,70,17,4.23,PF,1676170622
43,yaan,7.3833,8.5667,24.45,13,56,1.96,NG,1676170623
44,mitsamiouli,-11.3847,43.2844,26.7,80,99,3.85,KM,1676170623
45,anadyr,64.75,177.4833,-31.72,75,40,5.0,RU,1676170624
46,ixtapa,20.7,-105.2,22.9,82,2,1.28,MX,1676170625
47,hobart,-42.8794,147.3294,20.59,56,75,7.72,AU,1676170478
48,hermanus,-34.4187,19.2345,21.0,90,46,3.22,ZA,1676170625
49,olafsvik,64.8945,-23.7142,1.98,71,78,17.01,IS,1676170626
50,torbay,47.6666,-52.7314,-6.35,80,100,10.8,CA,1676170627
51,bluff,-46.6,168.3333,19.33,73,60,3.71,NZ,1676170627
52,andenes,69.3143,16.1194,0.99,93,100,12.86,NO,1676170628
53,pisco,-13.7,-76.2167,24.03,83,75,1.03,PE,1676170628
54,klaksvik,62.2266,-6.589,8.51,86,100,12.3,FO,1676170629
55,miandrivazo,-19.5167,45.4667,23.9,88,27,0.89,MG,1676170629
56,bahsuma,29.2167,77.9667,14.79,28,0,3.11,IN,1676170630
57,ambon,-3.6954,128.1814,32.08,62,40,5.66,ID,1676170630
58,raeren,50.6677,6.1168,5.14,95,77,0.18,BE,1676170631
59,mataura,-46.1927,168.8643,19.15,36,50,0.65,NZ,1676170631
60,norman wells,65.282,-126.8329,-24.98,70,75,1.54,CA,1676170632
61,bredasdorp,-34.5322,20.0403,19.71,92,0,3.11,ZA,1676170632
62,kindu,-2.95,25.95,20.26,97,100,1.01,CD,1676170633
63,lata,40.1629,-8.3327,7.26,60,73,4.86,PT,1676170634
64,ekibastuz,51.6667,75.3667,-16.23,95,88,3.59,KZ,1676170634
65,pevek,69.7008,170.3133,-34.88,100,99,0.78,RU,1676170635
66,saint-philippe,-21.3585,55.7679,24.77,80,44,4.6,RE,1676170635
67,kavieng,-2.5744,150.7967,26.76,83,99,4.2,PG,1676170636
68,itaituba,-4.2761,-55.9836,22.98,99,97,0.52,BR,1676170636
69,bethel,41.3712,-73.414,1.38,66,0,1.54,US,1676170637
70,agadez,19.75,10.25,14.85,27,3,4.21,NE,1676170637
71,khatanga,71.9667,102.5,-35.59,99,32,2.81,RU,1676170638
72,batagay-alyta,67.8006,130.4114,-38.52,94,63,0.98,RU,1676170638
73,sendhwa,21.6833,75.1,21.07,23,0,2.44,IN,1676170639
74,yulara,-25.2406,130.9889,37.31,13,4,3.09,AU,1676170640
75,shenzhen,22.5455,114.0683,23.92,99,83,3.73,CN,1676170557
76,castro,-24.7911,-50.0119,16.88,96,84,1.42,BR,1676170640
77,tanout,14.9709,8.8879,17.64,21,0,8.43,NE,1676170641
78,havelock,34.8791,-76.9013,7.99,85,100,4.63,US,1676170432
79,cedartown,34.0537,-85.255,6.61,87,100,6.85,US,1676170642
80,collie,-33.3667,116.15,27.04,26,0,2.87,AU,1676170642
81,emerald,-23.5333,148.1667,35.19,35,0,2.66,AU,1676170643
82,hilo,19.7297,-155.09,22.85,86,100,4.12,US,1676170643
83,kaitangata,-46.2817,169.8464,19.67,65,26,4.51,NZ,1676170644
84,ushuaia,-54.8,-68.3,5.81,87,0,2.57,AR,1676170644
85,mayo,38.8876,-76.5119,6.18,70,0,0.89,US,1676170645
86,tubinskiy,52.8892,58.2225,-18.97,100,97,2.68,RU,1676170645
87,tura,25.5198,90.2201,21.89,37,0,1.63,IN,1676170646
88,provideniya,64.3833,-173.3,-28.08,94,44,3.5,RU,1676170647
89,ponta delgada,37.7333,-25.6667,10.4,81,20,1.03,PT,1676170647
90,saint anthony,45.0205,-93.218,-0.12,83,0,3.09,US,1676170648
91,barrow,71.2906,-156.7887,-25.99,76,0,7.2,US,1676170648
92,doha,25.2867,51.5333,16.99,88,0,1.54,QA,1676170649
93,upernavik,72.7868,-56.1549,-27.68,93,100,4.36,GL,1676170649
94,san quintin,30.4833,-115.95,13.0,73,1,6.84,MX,1676170650
95,yumen,40.2833,97.2,-4.49,51,82,4.7,CN,1676170651
96,taltal,-25.4,-70.4833,20.39,88,5,1.2,CL,1676170651
97,tasiilaq,65.6145,-37.6368,-18.43,86,17,2.57,GL,1676170652
98,yellowknife,62.456,-114.3525,-16.71,85,100,2.57,CA,1676170653
99,punta arenas,-53.15,-70.9167,9.06,71,75,4.63,CL,1676170653
100,guerrero negro,27.9769,-114.0611,14.58,73,0,5.57,MX,1676170654
101,bengkulu,-3.8004,102.2655,26.68,73,100,3.66,ID,1676170654
102,huilong,31.8111,121.655,9.96,99,100,3.42,CN,1676170655
103,ribeira grande,38.5167,-28.7,13.69,63,67,4.25,PT,1676170656
104,cape town,-33.9258,18.4232,22.16,82,75,4.12,ZA,1676170516
105,sur,22.5667,59.5289,21.1,69,0,3.45,OM,1676170656
106,wukari,7.85,9.7833,23.12,15,8,2.67,NG,1676170657
107,sangueya,10.7,-14.3667,21.76,87,32,0.7,GN,1676170657
108,mae sai,20.4335,99.8762,25.9,22,0,0.34,TH,1676170658
109,port moresby,-9.4431,147.1797,33.68,52,75,5.14,PG,1676170658
110,new norfolk,-42.7826,147.0587,20.4,47,52,2.24,AU,1676170658
111,soyo,-6.1349,12.3689,25.75,84,97,3.2,AO,1676170659
112,kismayo,-0.3582,42.5454,24.36,83,38,8.62,SO,1676170659
113,yuzhou,34.1628,113.4639,4.61,93,100,4.43,CN,1676170660
114,sao filipe,14.8961,-24.4956,21.0,79,94,2.88,CV,1676170661
115,lorengau,-2.0226,147.2712,28.22,81,100,5.75,PG,1676170661
116,nizwa,22.9333,57.5333,18.48,43,0,0.04,OM,1676170662
117,bambous virieux,-20.3428,57.7575,24.56,83,20,0.0,MU,1676170662
118,qaanaaq,77.484,-69.3632,-30.66,74,25,0.17,GL,1676170663
119,olavarria,-36.8927,-60.3225,26.31,31,0,3.87,AR,1676170663
120,portland,45.5234,-122.6762,8.32,80,75,3.6,US,1676170518
121,kloulklubed,7.0419,134.2556,26.99,81,100,5.81,PW,1676170664
122,mao,39.8885,4.2658,7.31,70,75,3.6,ES,1676170665
123,dingle,10.9995,122.6711,28.22,65,11,6.8,PH,1676170665
124,san francisco,37.7749,-122.4194,11.05,76,40,5.66,US,1676170097
125,beringovskiy,63.05,179.3167,-30.58,86,13,3.82,RU,1676170666
126,pangnirtung,66.1451,-65.7125,-38.06,93,60,1.5,CA,1676170666
127,jasper,37.2001,-94.3502,3.03,55,0,0.0,US,1676170667
128,chuy,-33.6971,-53.4616,21.68,85,0,2.95,UY,1676170667
129,nhulunbuy,-12.2333,136.7667,28.34,78,40,3.6,AU,1676170668
130,alofi,-19.0595,-169.9187,26.94,78,100,3.09,NU,1676170668
131,skjervoy,70.0311,20.9714,-1.0,67,100,8.44,NO,1676170668
132,husavik,66.0449,-17.3389,1.58,67,22,15.63,IS,1676170669
133,praxedis guerrero,31.3667,-106.0167,12.2,18,100,4.48,MX,1676170669
134,mandera,3.9366,41.867,22.3,51,0,2.39,KE,1676170670
135,serowe,-22.3833,26.7167,19.38,92,92,3.88,BW,1676170670
136,manono,-7.3,27.4167,20.97,97,98,0.55,CD,1676170670
137,hit,33.6416,42.8251,7.34,51,19,5.02,IQ,1676170671
138,tuatapere,-46.1333,167.6833,20.73,53,73,3.67,NZ,1676170671
139,chokurdakh,70.6333,147.9167,-34.96,94,100,1.7,RU,1676170672
140,georgetown,5.4112,100.3354,29.96,83,20,2.57,MY,1676170595
141,nome,64.5011,-165.4064,-16.96,66,0,3.09,US,1676170672
142,wuchang,44.9143,127.15,-10.1,80,11,2.08,CN,1676170672
143,naze,28.3667,129.4833,20.51,83,86,5.67,JP,1676170673
144,kodiak,57.79,-152.4072,1.73,80,40,4.12,US,1676170673
145,arraial do cabo,-22.9661,-42.0278,23.48,93,100,5.86,BR,1676170674
146,oshkosh,44.0247,-88.5426,1.05,62,0,5.14,US,1676170598
147,salalah,17.0151,54.0924,21.57,30,5,1.44,OM,1676170675
148,tutoia,-2.7619,-42.2744,25.78,88,48,4.17,BR,1676170675
149,wuwei,37.9281,102.6414,-2.58,48,100,1.45,CN,1676170675
150,jibuti,11.5,42.5,18.75,74,0,7.8,DJ,1676170676
151,sinnamary,5.3833,-52.95,24.62,88,51,5.38,GF,1676170676
152,mangan,27.5167,88.5333,16.54,62,49,1.52,IN,1676170677
153,katsuura,35.1333,140.3,15.31,60,91,7.53,JP,1676170677
154,srednekolymsk,67.45,153.6833,-31.39,88,100,1.37,RU,1676170678
155,cherskiy,68.75,161.3,-37.4,93,53,1.51,RU,1676170678
156,jiangyou,31.7667,104.7167,11.74,69,100,1.06,CN,1676170678
157,sorong,-0.8833,131.25,28.07,71,87,2.38,ID,1676170679
158,mount gambier,-37.8333,140.7667,19.31,43,1,5.2,AU,1676170580
159,saskylakh,71.9167,114.0833,-44.88,100,61,2.09,RU,1676170680
160,kjopsvik,68.097,16.3742,-0.07,94,100,5.54,NO,1676170680
161,mahebourg,-20.4081,57.7,24.58,83,20,0.0,MU,1676170680
162,piacabucu,-10.4056,-36.4344,25.18,83,100,3.78,BR,1676170398
163,natal,-5.795,-35.2094,24.36,88,20,2.57,BR,1676170443
164,alugan,12.2188,125.4808,27.56,68,7,5.55,PH,1676170681
165,kandi,11.1342,2.9386,22.6,11,0,2.77,BJ,1676170681
166,naron,43.5167,-8.1528,8.7,65,0,2.66,ES,1676170682
167,laguna,38.421,-121.4238,12.16,64,0,4.12,US,1676170682
168,jeremie,18.65,-74.1167,23.73,81,10,1.79,HT,1676170683
169,hameenlinna,60.996,24.4643,-9.36,93,100,2.56,FI,1676170659
170,port elizabeth,-33.918,25.5701,22.28,88,0,2.06,ZA,1676170683
171,limanowa,49.7059,20.422,1.9,99,100,2.56,PL,1676170113
172,deputatskiy,69.3,139.9,-35.74,95,100,0.16,RU,1676170684
173,alice springs,-23.7,133.8833,36.75,14,15,7.72,AU,1676170684
174,minnedosa,50.2453,-99.8436,-5.69,93,86,4.22,CA,1676170685
175,terrace,54.5163,-128.6035,2.95,87,100,6.69,CA,1676170685
176,krasnyy chikoy,50.3643,108.7512,-12.86,80,44,1.76,RU,1676170686
177,canutama,-6.5339,-64.3831,22.87,96,100,0.74,BR,1676170686
178,mitu,1.1983,-70.1733,22.28,96,88,0.59,CO,1676170687
179,palu,-0.8917,119.8707,31.74,56,98,1.85,ID,1676170687
180,ostrovnoy,68.0531,39.5131,-7.69,95,60,6.84,RU,1676170687
181,codrington,-38.2667,141.9667,18.14,50,32,7.45,AU,1676170688
182,vilyuysk,63.7553,121.6247,-24.48,96,100,1.9,RU,1676170688
183,saint george,37.1041,-113.5841,11.33,25,0,4.12,US,1676170587
184,bayir,37.2687,28.2167,-4.71,59,0,1.16,TR,1676170689
185,eureka,40.8021,-124.1637,10.34,90,9,2.24,US,1676170690
186,saldanha,-33.0117,17.9442,17.93,97,28,4.17,ZA,1676170690
187,kitale,1.0157,35.0062,11.16,66,24,0.91,KE,1676170691
188,sobolevo,54.4299,31.8996,-5.25,85,98,8.23,RU,1676170691
189,tiksi,71.6872,128.8694,-38.92,99,61,1.02,RU,1676170691
190,morondava,-20.2833,44.2833,24.49,88,91,2.56,MG,1676170692
191,bathsheba,13.2167,-59.5167,26.34,69,40,9.26,BB,1676170692
192,ilulissat,69.2167,-51.1,-31.91,100,100,1.23,GL,1676170693
193,montrose,38.4166,-108.2673,-4.33,64,100,1.15,US,1676170693
194,kununurra,-15.7667,128.7333,28.99,74,40,2.57,AU,1676170404
195,kupang,-10.1667,123.5833,28.32,89,75,3.6,ID,1676170694
196,mwinilunga,-11.7358,24.4293,16.5,99,100,1.04,ZM,1676170694
197,ola,59.5833,151.2833,-14.7,89,100,2.0,RU,1676170695
198,svetlogorsk,52.6333,29.7333,-4.51,84,10,5.85,BY,1676170695
199,akhalgori,42.126,44.4833,-4.13,78,96,1.49,GE,1676170696
200,almeria,37.1667,-2.3333,8.21,92,100,3.18,ES,1676170696
201,cayenne,4.9333,-52.3333,24.02,94,75,1.03,GF,1676170696
202,vitina,43.2375,17.4839,-1.24,48,67,1.77,BA,1676170697
203,la suiza,9.8524,-83.6133,20.08,98,73,0.42,CR,1676170697
204,berdigestyakh,62.0989,126.6992,-24.16,96,100,1.93,RU,1676170698
205,lagoa,39.05,-27.9833,13.12,72,76,4.36,PT,1676170698
206,shekhupura,31.7131,73.9783,10.03,24,42,3.06,PK,1676170699
207,yurgamysh,55.3714,64.4656,-17.16,98,96,2.06,RU,1676170563
208,te anau,-45.4167,167.7167,23.21,38,88,0.83,NZ,1676170699
209,sangin,32.0728,64.8359,3.79,48,5,1.07,AF,1676170700
210,esperance,-33.8667,121.9,21.05,53,0,5.48,AU,1676170700
211,aklavik,68.2191,-135.0107,-34.2,98,79,1.9,CA,1676170701
212,severnyy,50.677,36.5532,-0.98,100,100,6.0,RU,1676170701
213,la rioja,42.25,-2.5,-7.12,45,0,2.64,ES,1676170702
214,victoria,22.2855,114.1577,23.03,92,78,5.36,HK,1676170689
215,atbasar,51.8,68.3333,-28.09,100,81,2.06,KZ,1676170702
216,gambo,4.6482,22.2633,19.46,38,32,1.25,CF,1676170703
217,saint-augustin,51.226,-58.6502,-19.56,81,3,5.27,CA,1676170703
218,lompoc,34.6391,-120.4579,9.96,81,75,3.09,US,1676170704
219,aksu,41.1231,80.2644,-1.81,63,74,2.01,CN,1676170704
220,vestmannaeyjar,63.4427,-20.2734,4.18,66,100,13.51,IS,1676170704
221,bundaberg,-24.85,152.35,32.9,61,0,2.24,AU,1676170705
222,cidreira,-30.1811,-50.2056,23.17,90,3,3.68,BR,1676170705
223,toamasina,-18.1667,49.3833,23.41,88,8,2.66,MG,1676170706
224,sweetwater,25.7634,-80.3731,25.01,90,20,3.6,US,1676170586
225,fortuna,40.5982,-124.1573,10.19,92,100,4.63,US,1676170533
226,aykhal,66.0,111.5,-22.3,97,99,1.88,RU,1676170706
227,tamandare,-8.7597,-35.1047,24.85,79,93,0.49,BR,1676170707
228,college,64.8569,-147.8028,-15.52,76,75,0.0,US,1676170707
229,san vicente,-26.6167,-54.1333,20.94,64,17,1.04,AR,1676170708
230,stokmarknes,68.5646,14.9108,2.99,81,100,7.2,NO,1676170577
231,suntar,62.1444,117.6319,-13.12,93,100,3.83,RU,1676170708
232,henties bay,-22.116,14.2845,18.21,86,0,0.95,NA,1676170709
233,tromso,69.6496,18.957,-0.99,93,100,9.77,NO,1676170709
234,lebu,-37.6167,-73.65,14.86,77,0,1.19,CL,1676170709
235,golden,39.7555,-105.2211,7.89,48,0,1.54,US,1676170710
236,killybegs,54.6333,-8.45,8.72,67,98,5.05,IE,1676170710
237,shangrao,28.4532,117.9686,17.39,87,85,1.89,CN,1676170711
238,tocopilla,-22.092,-70.1979,22.24,72,29,0.35,CL,1676170711
239,pitrufquen,-38.9833,-72.65,17.01,67,20,2.57,CL,1676170711
240,zabol,32.25,67.25,-2.48,58,2,3.12,AF,1676170712
241,vila franca do campo,37.7167,-25.4333,10.23,84,60,0.93,PT,1676170712
242,portree,57.4129,-6.1942,8.62,90,100,7.71,GB,1676170713
243,canico,32.6333,-16.85,16.67,82,20,3.6,PT,1676170713
244,phanat nikhom,13.4458,101.1844,32.95,100,60,3.54,TH,1676170714
245,fairbanks,64.8378,-147.7164,-13.0,78,0,0.0,US,1676170714
246,palmas,-10.2128,-48.3603,25.93,89,40,2.57,BR,1676170715
247,zhigalovo,54.8097,105.1578,-15.29,91,93,1.47,RU,1676170715
248,fairlie,55.756,-4.8556,8.99,80,100,0.89,GB,1676170716
249,bubaque,11.2833,-15.8333,23.81,70,1,6.99,GW,1676170716
250,barra do garcas,-15.89,-52.2567,23.39,83,20,0.61,BR,1676170636
251,qurayyat,31.3318,37.3428,3.1,65,0,2.06,SA,1676170717
252,manokwari,-0.8667,134.0833,27.73,71,99,2.26,ID,1676170717
253,padang,-0.9492,100.3543,27.03,66,100,0.89,ID,1676170718
254,cockburn town,21.4612,-71.1419,24.95,78,0,10.27,TC,1676170718
255,east london,-33.0153,27.9116,23.59,72,100,2.36,ZA,1676170511
256,touros,-5.1989,-35.4608,26.13,73,45,5.34,BR,1676170719
257,puerto escondido,15.85,-97.0667,24.79,77,0,2.96,MX,1676170719
258,inhambane,-23.865,35.3833,25.88,88,100,6.02,MZ,1676170719
259,khawhai,23.3667,93.1167,17.28,30,0,0.64,IN,1676170720
260,camopi,3.1655,-52.3158,22.4,100,100,0.63,GF,1676170720
261,tapah,4.2004,101.2598,25.95,71,58,1.51,MY,1676170721
262,khandyga,62.6667,135.6,-34.11,96,97,0.83,RU,1676170721
263,mwene-ditu,-7.0,23.45,18.12,93,100,1.4,CD,1676170721
264,luebo,-5.35,21.4167,20.68,98,100,0.56,CD,1676170722
265,necochea,-38.5473,-58.7368,27.0,36,4,5.28,AR,1676170722
266,trairi,-3.2778,-39.2689,25.48,77,6,4.03,BR,1676170463
267,gat,31.61,34.7642,9.67,100,32,0.86,IL,1676170723
268,shache,38.4167,77.2406,2.06,57,0,2.18,CN,1676170723
269,florianopolis,-27.6146,-48.5012,23.12,91,40,0.51,BR,1676170724
270,coquimbo,-29.9533,-71.3436,17.85,94,0,3.6,CL,1676170724
271,thompson,55.7435,-97.8558,-19.91,77,75,1.03,CA,1676170724
272,andros town,24.7,-77.7667,23.98,81,6,7.24,BS,1676170725
273,yankton,42.8711,-97.3973,2.14,69,0,3.09,US,1676170725
274,viedma,-40.8135,-62.9967,23.6,66,13,3.41,AR,1676170548
275,ponta do sol,32.6667,-17.1,16.67,74,11,2.05,PT,1676170726
276,iracoubo,5.4802,-53.2011,24.32,89,60,5.11,GF,1676170726
277,kahului,20.8947,-156.47,25.01,71,0,10.29,US,1676170726
278,udachnyy,66.4167,112.4,-24.42,96,100,1.36,RU,1676170727
279,sandwick,60.0,-1.25,8.9,81,100,9.77,GB,1676170727
280,santa lucia,27.9117,-15.5407,11.54,88,20,2.57,ES,1676170728
281,manicore,-5.8092,-61.3003,23.2,99,100,1.04,BR,1676170728
282,constitucion,-35.3333,-72.4167,14.99,76,0,4.63,CL,1676170557
283,daitari,21.1,85.75,24.93,19,90,1.93,IN,1676170729
284,faya,18.3851,42.4509,11.29,24,0,2.59,SA,1676170729
285,lavrentiya,65.5833,-171.0,-28.05,90,52,3.12,RU,1676170730
286,ivanivka,46.7208,34.553,-0.46,78,100,4.34,UA,1676170730
287,brae,60.3964,-1.353,9.0,81,100,12.06,GB,1676170731
288,turukhansk,65.8167,87.9833,-13.89,95,100,6.68,RU,1676170731
289,terra rica,-22.7094,-52.6169,21.59,93,100,2.38,BR,1676170732
290,flinders,-34.5833,150.8552,27.88,63,62,2.24,AU,1676170732
291,conceicao do rio verde,-21.8808,-45.0853,18.7,96,100,1.12,BR,1676170733
292,belmonte,-15.8631,-38.8828,24.95,89,44,2.07,BR,1676170733
293,victor harbor,-35.5667,138.6167,22.04,54,1,5.86,AU,1676170733
294,energeticheskiy,43.4278,77.0222,-9.69,73,75,3.0,KZ,1676170734
295,maragogi,-9.0122,-35.2225,24.86,80,16,0.79,BR,1676170734
296,vardo,70.3705,31.1107,-2.01,100,97,6.69,NO,1676170735
297,margate,51.3813,1.3862,7.95,83,100,0.82,GB,1676170735
298,devonport,-41.1667,146.35,25.05,39,0,8.1,AU,1676170736
299,pouembout,-21.1333,164.9,26.66,64,75,4.55,NC,1676170736
300,omboue,-1.5746,9.2618,25.5,87,99,0.99,GA,1676170737
301,waipawa,-41.4122,175.5153,17.57,65,100,5.4,NZ,1676170737
302,sabang,5.8933,95.3214,27.16,76,87,2.3,ID,1676170738
303,mehamn,71.0357,27.8492,0.97,69,75,8.23,NO,1676170738
304,jaisalmer,26.9147,70.9181,15.43,18,0,5.53,IN,1676170527
305,naro moru,-0.1676,37.0213,10.07,60,100,0.71,KE,1676170739
306,mazara del vallo,37.6641,12.588,8.85,79,9,2.42,IT,1676170739
307,aransas pass,27.9095,-97.15,14.0,63,0,2.06,US,1676170471
308,komsomolskiy,40.4272,71.7189,-4.6,80,26,1.03,UZ,1676170739
309,letlhakeng,-24.0944,25.0298,19.69,72,33,2.37,BW,1676170740
310,verkhnevilyuysk,63.4453,120.3167,-20.88,96,100,0.89,RU,1676170740
311,saint-georges,12.0564,-61.7485,24.82,83,20,6.17,GD,1676170741
312,butaritari,3.0707,172.7902,26.92,83,32,7.18,KI,1676170741
313,kulhudhuffushi,6.6221,73.07,26.31,67,33,0.87,MV,1676170742
314,najran,17.4924,44.1277,14.36,29,10,2.53,SA,1676170603
315,geraldton,-28.7667,114.6,30.23,32,0,4.12,AU,1676170742
316,russell,32.3502,-85.1999,9.6,87,100,4.12,US,1676170743
317,mecca,21.4267,39.8261,21.55,83,28,0.33,SA,1676170610
318,teguldet,57.3064,88.1667,-22.41,98,21,1.39,RU,1676170743
319,krasnoselkup,65.7,82.4667,-13.85,94,100,8.08,RU,1676170744
320,guarda,40.5373,-7.2658,0.04,77,45,2.63,PT,1676170701
321,hithadhoo,-0.6,73.0833,27.06,69,3,5.24,MV,1676170744
322,pontianak,-0.0333,109.3333,28.99,79,75,1.54,ID,1676170745
323,roald,62.5833,6.1333,10.42,87,100,10.8,NO,1676170745
324,airai,-8.9266,125.4092,19.91,81,94,1.92,TL,1676170746
325,alyangula,-13.8483,136.4192,27.97,80,100,3.16,AU,1676170746
326,jalu,29.0331,21.5482,12.11,48,100,5.08,LY,1676170747
327,amahai,-3.3333,128.9167,31.26,58,79,1.42,ID,1676170747
328,nijar,36.9665,-2.206,10.92,58,100,5.66,ES,1676170747
329,lasa,46.6166,10.7002,3.49,74,9,2.62,IT,1676170748
330,synya,65.3718,58.0387,-6.93,93,100,5.06,RU,1676170748
331,alta floresta,-9.8756,-56.0861,21.63,96,52,0.62,BR,1676170749
332,khash,28.2211,61.2158,3.93,50,100,2.65,IR,1676170749
333,beyneu,45.3167,55.2,-6.29,79,95,4.37,KZ,1676170750
334,benguela,-12.5763,13.4055,23.18,76,25,0.64,AO,1676170750
335,claremore,36.3126,-95.6161,6.98,70,0,0.0,US,1676170611
336,amuntai,-2.4177,115.2494,30.77,64,100,0.18,ID,1676170751
337,springdale,36.1867,-94.1288,4.07,57,0,0.0,US,1676170751
338,mlimba,-8.8,35.8167,21.52,99,100,0.91,TZ,1676170752
339,torrington,41.8007,-73.1212,-0.17,75,48,1.49,US,1676170470
340,san patricio,28.017,-97.5169,13.92,55,29,3.22,US,1676170395
341,hachinohe,40.5,141.5,3.6,96,100,4.37,JP,1676170752
342,trelew,-43.249,-65.3051,22.41,30,69,0.75,AR,1676170657
343,raga,8.4596,25.678,22.14,25,5,1.75,SS,1676170242
344,ust-nera,64.5667,143.2,-28.45,94,100,1.91,RU,1676170753
345,boffa,10.1667,-14.0333,23.61,81,48,1.87,GN,1676170754
346,muravlenko,63.7898,74.523,-13.76,92,100,9.03,RU,1676170754
347,kondagaon,19.6,81.6667,23.78,24,39,2.82,IN,1676170755
348,pandan,14.0453,124.1694,27.14,76,33,6.49,PH,1676170755
349,bacalar,18.6667,-88.3833,20.43,95,53,4.57,MX,1676170755
350,olinda,-8.0089,-34.8553,26.85,69,40,2.06,BR,1676170756
351,raton,36.9034,-104.4391,3.34,33,0,5.14,US,1676170756
352,nueva loja,0.0847,-76.8828,21.56,96,73,0.36,EC,1676170757
353,sisimiut,66.9395,-53.6735,-29.21,95,60,3.16,GL,1676170757
354,ust-kuyga,70.0167,135.6,-46.11,98,84,2.1,RU,1676170758
355,ginir,7.1333,40.7,11.87,34,0,2.62,ET,1676170758
356,tahlequah,35.9154,-94.97,6.6,75,0,0.0,US,1676170758
357,lima,-12.0432,-77.0282,24.39,78,20,6.69,PE,1676170200
358,manggar,-2.8833,108.2667,26.8,79,100,4.37,ID,1676170759
359,havoysund,70.9963,24.6622,1.13,59,100,3.48,NO,1676170759
360,chapais,49.7834,-74.8492,-7.12,95,100,5.47,CA,1676170760
361,kanata,45.3159,-75.8985,-0.88,77,75,7.72,CA,1676170760
362,haines junction,60.7522,-137.5108,0.97,60,85,3.09,CA,1676170761
363,broken hill,-31.95,141.4333,25.7,30,0,7.69,AU,1676170761
364,katherine,-14.4667,132.2667,28.18,78,100,0.0,AU,1676170762
365,port-gentil,-0.7193,8.7815,27.37,79,100,1.72,GA,1676170762
366,grand gaube,-20.0064,57.6608,24.65,77,12,0.89,MU,1676170763
367,ahipara,-35.1667,173.1667,18.62,92,100,10.4,NZ,1676170763
368,redmond,47.674,-122.1215,7.1,83,71,0.99,US,1676170324
369,borogontsy,62.6683,131.1683,-32.61,96,100,1.8,RU,1676170764
370,mogzon,51.7435,111.9606,-14.33,71,45,4.89,RU,1676170764
371,talnakh,69.4865,88.3972,-12.01,94,100,5.33,RU,1676170764
372,shimoda,34.6667,138.95,15.61,68,66,4.21,JP,1676170765
373,makueni,-1.8041,37.6203,14.0,74,98,0.71,KE,1676170765
374,bacolod,10.6667,122.95,28.86,60,12,6.87,PH,1676170766
375,boyolangu,-8.1181,111.8935,28.78,73,43,0.91,ID,1676170766
376,prince rupert,54.3161,-130.3201,5.83,87,100,10.8,CA,1676170737
377,golfito,8.639,-83.166,23.39,92,30,1.19,CR,1676170767
378,hofn,64.2539,-15.2082,3.81,67,4,14.25,IS,1676170767
379,casa nova,-9.4167,-41.1333,28.15,43,99,5.31,BR,1676170767
380,belize,17.25,-88.75,22.18,99,9,0.69,BZ,1676170768
381,batemans bay,-35.7167,150.1833,24.5,60,5,4.09,AU,1676170768
382,hasaki,35.7333,140.8333,14.22,61,100,7.28,JP,1676170769
383,cap-aux-meules,47.3821,-61.8597,-6.97,68,75,9.26,CA,1676170769
384,hay river,60.8156,-115.7999,-13.01,78,100,3.09,CA,1676170770
385,luganville,-15.5333,167.1667,32.13,59,100,1.37,VU,1676170770
386,tsumeb,-19.2333,17.7167,20.81,51,58,2.57,NA,1676170771
387,scarborough,54.2797,-0.4044,7.17,82,69,2.61,GB,1676170104
388,dauphin,51.1494,-100.0502,-2.92,95,100,1.03,CA,1676170771
389,konevo,62.1215,39.3192,-17.4,98,53,1.98,RU,1676170772
390,namibe,-15.1961,12.1522,20.93,82,13,2.15,AO,1676170772
391,srikakulam,18.3,83.9,25.25,60,40,2.74,IN,1676170773
392,hibbing,47.4272,-92.9377,3.64,51,0,2.06,US,1676170773
393,kiruna,67.8557,20.2251,-4.49,68,75,5.66,SE,1676170773
394,cabedelo,-6.9811,-34.8339,25.37,82,91,3.42,BR,1676170774
395,brookhaven,31.5791,-90.4407,5.14,93,100,6.26,US,1676170774
396,havre-saint-pierre,50.2334,-63.5986,-11.0,60,0,5.14,CA,1676170775
397,alakurtti,66.9672,30.3491,-8.07,87,97,3.8,RU,1676170775
398,sao miguel do araguaia,-13.275,-50.1628,24.87,72,29,1.05,BR,1676170775
399,asau,46.4333,26.4,-1.49,90,100,3.15,RO,1676170776
400,linxia,35.6003,103.2064,-3.07,58,100,1.48,CN,1676170776
401,kamaishi,39.2667,141.8833,7.45,61,4,5.06,JP,1676170777
402,tarakan,3.3,117.6333,28.72,74,75,3.09,ID,1676170777
403,murrhardt,48.9819,9.5705,4.76,83,100,0.46,DE,1676170778
404,iskilip,40.7353,34.4739,-4.06,89,85,1.54,TR,1676170778
405,saint-malo,48.5,-1.8333,2.97,93,0,3.36,FR,1676170779
406,hami,42.8,93.45,0.07,36,100,2.28,CN,1676170779
407,ibiapina,-3.9233,-40.8894,18.64,90,75,0.68,BR,1676170780
408,petatlan,17.5167,-101.2667,23.26,79,0,1.88,MX,1676170664
409,lena,43.1,-5.7333,-0.46,65,0,3.44,ES,1676170780
410,caravelas,-17.7125,-39.2481,24.45,91,98,2.05,BR,1676170781
411,varhaug,58.6147,5.6457,7.3,89,100,6.5,NO,1676170781
412,mujiayingzi,42.1167,118.7833,-4.74,46,100,2.21,CN,1676170781
413,sainte-marie,-20.8968,55.5496,25.09,69,100,2.06,RE,1676170782
414,nikolskoye,59.7035,30.7861,-7.06,91,9,3.55,RU,1676170782
415,bilma,18.6853,12.9164,16.35,22,2,5.57,NE,1676170783
416,vao,-22.6667,167.4833,25.32,70,30,12.33,NC,1676170783
417,alzenau,50.0834,9.0666,5.62,85,100,0.49,DE,1676170783
418,moose factory,51.2585,-80.6094,-7.0,79,100,6.69,CA,1676170784
419,ende,-8.8432,121.6623,28.42,78,87,3.87,ID,1676170784
420,loudeac,48.1783,-2.7543,3.04,90,0,3.01,FR,1676170785
421,chicama,-7.8447,-79.1469,21.3,78,100,2.27,PE,1676170785
422,baykit,61.67,96.37,-16.89,96,100,1.47,RU,1676170786
423,tobol,52.6844,62.5794,-16.31,93,9,3.8,KZ,1676170786
424,auki,-8.7676,160.7034,28.72,76,100,3.67,SB,1676170786
425,sao joao da barra,-21.6403,-41.0511,24.59,90,100,6.55,BR,1676170787
426,kutum,14.2,24.6667,16.17,21,0,4.17,SD,1676170787
427,gorontalo,0.5412,123.0595,32.31,50,100,1.15,ID,1676170788
428,nabire,-3.3667,135.4833,30.75,61,61,2.77,ID,1676170788
429,banjar,-8.19,114.9675,30.7,67,95,0.63,ID,1676170695
430,port hedland,-20.3167,118.5667,39.03,30,66,5.66,AU,1676170712
431,vostok,46.4856,135.8833,-8.75,85,100,3.79,RU,1676170789
432,egvekinot,66.3167,-179.1667,-28.46,86,100,3.31,RU,1676170789
433,gondanglegi,-7.7479,112.0132,28.91,75,26,1.89,ID,1676170790
434,palora,-1.7,-77.9333,18.21,94,72,1.17,EC,1676170790
435,ikryanoye,46.0932,47.7308,-5.01,97,99,2.57,RU,1676170790
436,purpe,64.4803,76.6897,-13.66,92,100,9.4,RU,1676170791
437,xingyi,24.1877,102.817,18.28,24,51,4.51,CN,1676170791
438,bauchi,10.5,10.0,17.13,18,0,2.47,NG,1676170792
439,camacha,33.0833,-16.3333,14.68,72,40,4.63,PT,1676170792
440,altus,34.6381,-99.334,4.04,57,0,3.09,US,1676170792
441,bonavista,48.6499,-53.1147,-6.99,75,100,13.49,CA,1676170793
442,christchurch,-43.5333,172.6333,23.01,56,2,9.77,NZ,1676170654
443,palasa,18.7667,84.4167,26.76,47,6,2.23,IN,1676170793
444,sioux lookout,50.1001,-91.917,-3.96,86,75,1.03,CA,1676170794
445,santa cruz,-17.8,-63.1667,24.7,83,20,2.06,BO,1676170794
446,washington,47.5001,-120.5015,2.22,71,61,1.14,US,1676170496
447,tilichiki,60.4667,166.1,-21.46,79,95,3.89,RU,1676170795
448,broome,42.2506,-75.833,-1.47,79,65,2.24,US,1676170795
449,hornepayne,49.2138,-84.7705,-7.2,96,96,1.52,CA,1676170796
450,bairiki,1.3292,172.9752,29.0,79,75,4.12,KI,1676170796
451,clyde river,70.4692,-68.5914,-32.87,75,0,2.06,CA,1676170796
452,juba,4.8517,31.5825,25.98,32,52,1.16,SS,1676170797
453,lethem,3.3803,-59.7968,25.92,65,55,6.11,GY,1676170797
454,tessalit,20.1986,1.0114,21.8,20,74,6.45,ML,1676170798
455,coihaique,-45.5752,-72.0662,12.97,76,40,5.14,CL,1676170798
456,minsk,53.9,27.5667,-4.14,92,6,5.48,BY,1676170390
457,leningradskiy,69.3833,178.4167,-26.5,96,100,7.64,RU,1676170799
458,dikson,73.5069,80.5464,-18.74,97,100,2.24,RU,1676170799
459,itarema,-2.9248,-39.9167,26.14,75,5,5.82,BR,1676170529
460,kidal,18.4411,1.4078,21.76,20,20,6.42,ML,1676170800
461,cabo san lucas,22.8909,-109.9124,20.9,62,77,1.61,MX,1676170687
462,la victoria,10.2184,-67.3302,19.48,91,85,2.04,VE,1676170801
463,imbituba,-28.24,-48.6703,22.79,90,25,1.62,BR,1676170686
464,balkhash,46.844,74.9804,-19.66,84,83,7.0,KZ,1676170803
465,luderitz,-26.6481,15.1594,16.91,93,1,2.34,NA,1676170779
466,likasi,-10.9814,26.7333,17.48,96,100,2.23,CD,1676170806
467,onega,63.9061,38.1404,-7.8,95,100,3.43,RU,1676170811
468,valparaiso,-33.0393,-71.6273,15.8,82,0,1.03,CL,1676170564
469,san juan,-31.5375,-68.5364,32.72,25,83,4.07,AR,1676170815
470,ourem,39.6417,-8.5919,10.49,62,97,5.2,PT,1676170819
471,imperia,43.9667,7.7833,6.72,75,1,2.12,IT,1676170835
472,gazojak,41.1875,61.4036,-2.7,36,0,3.5,TM,1676170837
473,barreirinhas,-2.7469,-42.8264,25.24,87,87,2.25,BR,1676170837
474,manta,-0.95,-80.7333,26.88,78,75,2.57,EC,1676170838
475,maldonado,-34.6667,-54.9167,25.68,56,0,4.37,UY,1676170840
476,inirida,3.8653,-67.9239,23.32,95,99,0.86,CO,1676170832
477,newport,51.5877,-2.9984,8.16,90,41,1.38,GB,1676170826
478,aljezur,37.3191,-8.8033,13.22,77,69,8.71,PT,1676170841
479,mumford,5.2618,-0.759,26.12,90,51,2.05,GH,1676170841
480,carbonia,39.1672,8.5222,1.12,82,2,1.5,IT,1676170702
481,biloela,-24.4167,150.5,35.79,27,0,3.39,AU,1676170842
482,smithers,54.7804,-127.1743,-0.82,93,75,2.06,CA,1676170830
483,shenjiamen,29.9576,122.298,12.64,98,100,5.64,CN,1676170842
484,kuytun,54.3419,101.5036,-19.16,95,70,0.4,RU,1676170843
485,staritsa,56.5075,34.9354,-6.42,86,100,6.67,RU,1676170843
486,cassilandia,-19.1133,-51.7342,20.99,96,93,1.16,BR,1676170844
487,sakaiminato,35.55,133.2333,9.99,66,75,1.03,JP,1676170844
488,monrovia,6.3005,-10.7969,23.87,91,12,2.83,LR,1676170845
489,santa fe,-31.6333,-60.7,32.77,44,89,3.13,AR,1676170646
490,agogo,6.8,-1.0819,22.13,92,65,1.82,GH,1676170845
491,baruun-urt,46.6806,113.2792,-14.39,78,6,3.18,MN,1676170846
492,niquero,20.0431,-77.5828,23.84,81,20,1.39,CU,1676170846
493,wamba,8.9333,8.6,22.36,14,1,2.46,NG,1676170847
494,faanui,-16.4833,-151.75,27.71,74,11,6.1,PF,1676170847
495,nishinomiya,34.7167,135.3333,15.37,54,20,2.06,JP,1676170295
496,mar del plata,-38.0023,-57.5575,25.61,83,0,3.6,AR,1676170609
497,shahabad,27.65,79.95,15.6,35,0,4.86,IN,1676170848
498,shihezi,44.3,86.0333,-8.71,92,100,1.76,CN,1676170848
499,axim,4.8699,-2.2405,25.78,92,43,1.6,GH,1676170849
500,charters towers,-20.1,146.2667,34.3,25,11,4.49,AU,1676170849
501,jiexiu,37.0244,111.9125,1.93,99,100,1.61,CN,1676170850
502,naberera,-4.2,36.9333,15.91,89,87,2.17,TZ,1676170850
503,gayny,60.3071,54.3241,-8.3,94,100,3.13,RU,1676170851
504,abha,18.2164,42.5053,11.14,66,0,2.57,SA,1676170607
505,bend,44.0582,-121.3153,3.18,68,0,0.0,US,1676170752
506,mendoza,-32.8908,-68.8272,31.74,40,20,2.57,AR,1676170623
507,la asuncion,11.0333,-63.8628,23.92,85,12,7.15,VE,1676170852
508,skegness,53.1436,0.3363,7.41,88,23,2.16,GB,1676170852
509,pochutla,15.7432,-96.4661,22.22,74,0,0.9,MX,1676170853
510,kajaani,64.2273,27.7285,-9.97,92,0,2.57,FI,1676170854
511,carauari,-4.8828,-66.8958,23.06,97,96,0.37,BR,1676170854
512,dongtai,32.8523,120.3095,8.22,98,100,5.25,CN,1676170854
513,vigrestad,58.5667,5.7,7.36,89,100,6.71,NO,1676170855
514,kemijarvi,66.7131,27.4306,-10.4,89,100,1.93,FI,1676170855
515,tambacounda,13.7539,-13.7586,29.03,21,0,2.06,SN,1676170856
516,korla,41.7597,86.1469,0.13,55,90,0.57,CN,1676170856
517,kitimat,54.0524,-128.6534,3.21,32,100,1.47,CA,1676170857
518,puerto ayacucho,5.6639,-67.6236,27.29,63,98,0.75,VE,1676170857
519,vrsac,45.1167,21.3036,1.9,64,100,1.03,RS,1676170858
520,aswan,24.0934,32.907,13.35,40,100,4.34,EG,1676170858
521,jumla,29.2747,82.1838,4.73,41,1,1.9,NP,1676170859
522,abu samrah,35.3029,37.1841,3.91,89,99,3.44,SY,1676170859
523,svobodnyy,51.4,128.1333,-13.5,84,100,2.19,RU,1676170860
524,kruisfontein,-34.0033,24.7314,21.05,59,100,2.65,ZA,1676170860
525,kirovskiy,45.0917,133.5136,-8.87,83,92,2.99,RU,1676170861
526,bereda,43.2686,-7.5406,1.9,84,0,0.54,ES,1676170861
527,amapa,1.0,-52.0,21.65,99,97,0.82,BR,1676170862
528,ferreiras,37.1293,-8.2376,13.5,81,66,9.01,PT,1676170863
529,elko,41.0002,-115.5012,0.01,79,100,0.89,US,1676170824
530,laem sing,12.4816,102.0738,31.34,84,67,2.26,TH,1676170864
531,ontario,34.0633,-117.6509,12.04,69,75,4.63,US,1676170719
532,port hardy,50.6996,-127.4199,5.1,100,100,5.66,CA,1676170866
533,kavaratti,10.5669,72.642,26.45,77,76,1.49,IN,1676170866
534,vanavara,60.34,102.2797,-13.54,91,100,4.75,RU,1676170867
535,ardakan,32.31,54.0175,3.0,50,61,1.37,IR,1676170868
536,poya,-21.35,165.15,26.66,63,52,5.0,NC,1676170868
537,ballina,-28.8667,153.5667,35.99,47,0,6.04,AU,1676170869
538,nouakchott,18.0858,-15.9785,21.96,75,100,5.88,MR,1676170870
539,wum,6.3833,10.0667,19.57,19,50,0.98,CM,1676170871
540,muhos,64.808,25.9931,-6.12,97,92,2.06,FI,1676170871
541,saiha,22.4833,92.9667,24.03,25,2,0.46,IN,1676170872
542,goderich,43.7501,-81.7165,1.18,69,1,7.72,CA,1676170826
543,raudeberg,61.9875,5.1352,8.26,55,100,13.36,NO,1676170873
544,akdepe,42.0551,59.3788,-9.95,36,1,3.53,TM,1676170874
545,kenai,60.5544,-151.2583,-2.73,92,100,3.09,US,1676170875
546,kyshtovka,56.555,76.6271,-24.4,100,100,1.62,RU,1676170876
547,bhander,25.7333,78.75,16.83,34,0,2.89,IN,1676170877
548,meulaboh,4.1363,96.1285,27.55,73,28,2.15,ID,1676170877
549,takoradi,4.8845,-1.7554,26.11,90,40,1.59,GH,1676170878
550,krasnoarmeysk,51.0239,45.6969,-8.72,89,100,4.83,RU,1676170879
551,abatskoye,56.2875,70.4555,-22.16,98,8,3.07,RU,1676170880
552,tahoua,14.8888,5.2692,20.22,20,0,7.45,NE,1676170880
553,marawi,7.9986,124.2928,24.57,67,65,3.11,PH,1676170881
554,krasnokamensk,50.0979,118.0369,-16.32,85,16,2.53,RU,1676170882
555,chapada dos guimaraes,-15.4606,-55.7497,19.81,87,76,1.57,BR,1676170883
556,tiarei,-17.5333,-149.3333,30.01,78,26,6.2,PF,1676170883
557,kolaras,25.2333,77.6,17.63,34,0,2.08,IN,1676170884
558,saint-francois,46.4154,3.9054,-3.51,93,0,1.54,FR,1676170885
559,fort saint james,54.4333,-124.25,-2.54,96,100,1.63,CA,1676170885
560,pundaguitan,6.3711,126.1689,27.05,75,83,6.53,PH,1676170886
